[{"notes":"Drop off at Addison Baptist Church, behind the Church. There will be a Town dump truck parked there all weekend from Friday PM to Monday early AM.","name":"Addison Baptist Church","coordinates":{"id":null,"latitude":44.0886671,"longitude":-73.3028997},"address":"4970 VT 22A, Addison, VT 05491"},{"name":"Albany Town Garage","coordinates":{"id":null,"latitude":44.7580711,"longitude":-72.3284556},"address":"569 Delano Rd., Albany, VT 05820","notes":"Leave bags at the Town Garage."},{"name":"Transfer Station","coordinates":{"longitude":-73.2742027,"id":null,"latitude":44.9608232},"address":"260 Dump Road, Alburgh, VT  05440","notes":""},{"notes":"","name":"Town Clerk's Office","coordinates":{"longitude":-73.300195,"id":null,"latitude":44.977025},"address":"1 N Main St, Alburg, VT 05440"},{"name":"Andover Town Garage","coordinates":{"id":null,"latitude":43.2714471,"longitude":-72.6734994},"address":"953 Andover Rd., Chester, VT 05143","notes":"Bags need to be dropped off at the Town Garage dumpster."},{"name":"","coordinates":{"id":null,"latitude":null,"longitude":null},"address":"Leave on roadsides at intersections.","notes":""},{"notes":"Leave full bags and large debris along roadsides for pick up.","name":"","coordinates":{"id":null,"latitude":null,"longitude":null},"address":""},{"address":"Leave on roadsides at intersections.","notes":"","name":"","coordinates":{"longitude":null,"id":null,"latitude":null}},{"notes":"","name":"","coordinates":{"id":null,"latitude":null,"longitude":null},"address":"Leave on roadsides at intersections."},{"address":"43 VT Route 108, Bakersfield, VT 05441","notes":"","name":"Bakersfield Town Park","coordinates":{"latitude":44.7826691,"longitude":-72.8013684,"id":null}},{"notes":"","name":"Town Office","coordinates":{"id":null,"latitude":43.3616726,"longitude":-72.57138139999999},"address":"1902 Baltimore Rd, Baltimore, VT 05143"},{"name":"Barnard General Store","coordinates":{"id":null,"latitude":43.7290293,"longitude":-72.6204712},"address":"6231 Vermont 12, Barnard, VT 05031","notes":""},{"address":"157 Chateauguay Rd., Barnard, VT 05031","notes":"","name":"Barnard Recycling Center","coordinates":{"id":null,"latitude":43.755531,"longitude":-72.63589499999999}},{"address":"163 Kid Row, Barnet, VT 05821","notes":"","name":"Barnet School","coordinates":{"longitude":-72.0814506,"id":null,"latitude":44.3074619}},{"notes":"City workers pick\nup bags for 3-4 days after GU Day.","name":"","coordinates":{"longitude":null,"id":null,"latitude":null},"address":"Leave on roadsides at intersections."},{"notes":"","name":"","coordinates":{"longitude":null,"id":null,"latitude":null},"address":"Leave on roadsides at intersections."},{"name":"Town Garage","coordinates":{"longitude":-72.20960199999999,"id":null,"latitude":44.784336},"address":"210 May Farm Rd, Barton, VT 05822","notes":""},{"notes":"","name":"","coordinates":{"longitude":null,"id":null,"latitude":null},"address":"Leave on roadsides at intersections."},{"name":"","coordinates":{"id":null,"latitude":null,"longitude":null},"address":"Leave on roadsides at intersections.","notes":""},{"name":"","coordinates":{"id":null,"latitude":null,"longitude":null},"address":"Leave on roadsides at intersections.","notes":""},{"name":"Berkshire Town Garage","coordinates":{"longitude":-72.774079,"id":null,"latitude":44.971746},"address":"4454 Water Tower Rd, Enosburg Falls, VT 05450","notes":""},{"address":"108 Shed Rd, Berlin, VT 05602","notes":"Bags may be left\nalong roadsides or put in the dumpster\nat the Town Offices.","name":"Town Offices","coordinates":{"id":null,"latitude":44.2118107,"longitude":-72.5800687}},{"address":"142 Berlin Mall Road, Berlin, VT","notes":"pick up and drop off bags at Twin City Subaru.  Refreshments and prizes available for enthusiastic participants from 8-4.  Thanks for helping out Green Up Vermont!","name":"Twin City Subaru","coordinates":{"id":null,"latitude":44.2193926,"longitude":-72.5668367}},{"name":"","coordinates":{"id":null,"latitude":null,"longitude":null},"address":"","notes":""},{"name":"Jeffers Sand and Gravel Pit","coordinates":{"latitude":44.8623858,"longitude":-71.5418652,"id":null},"address":"15 Grant Rd., Colebrook, NH 03576","notes":""},{"notes":"","name":"","coordinates":{"latitude":null,"longitude":null,"id":null},"address":"Leave on roadsides at intersections."},{"address":"359 Fairground Rd, Bradford, VT 05033","notes":"","name":"Bradford Town Garage","coordinates":{"longitude":-72.12135959999999,"id":null,"latitude":44.0055979}},{"address":"932 VT-12, Braintree, VT 05060","notes":"Bring bags to the \ndumpster at the Town Garage.","name":"Town Garage","coordinates":{"id":null,"latitude":43.9693985,"longitude":-72.7847972}},{"notes":"","name":"","coordinates":{"longitude":null,"id":null,"latitude":null},"address":"Leave on roadsides at intersections."},{"address":"Leave on roadsides at intersections.","notes":"","name":"","coordinates":{"id":null,"latitude":null,"longitude":null}},{"address":"65 Schoolhouse Rd, Bridgewater Corners, VT 05034","notes":"","name":"","coordinates":{"id":null,"latitude":43.5868107,"longitude":-72.65821679999999}},{"notes":"Please bring full bags back to trucks\nparked at the Town Clerk's office.\n\nOr leave on roadsides at intersections.","name":"Town Clerk's Office","coordinates":{"latitude":43.984423,"longitude":-73.31526699999999,"id":null},"address":"82 Crown Point Rd, Bridport, VT 05734"},{"notes":"","name":"Town Hall","coordinates":{"id":null,"latitude":44.8149629,"longitude":-71.8820039},"address":" 49 Mill St, Island Pond, VT 05846"},{"address":"Bring bags to Transfer station or leave on roadsides at intersections.","notes":"","name":"Transfer Station","coordinates":{"id":null,"latitude":null,"longitude":null}},{"notes":"","name":"Brookfield Town Garage","coordinates":{"longitude":-72.5841694,"id":null,"latitude":44.0304891},"address":"40-74 VT Route 65, Brookfield, VT 05036"},{"name":"","coordinates":{"id":null,"latitude":null,"longitude":null},"address":"Leave on roadsides at intersections.","notes":""},{"notes":"","name":"Town Clerk's Office","coordinates":{"latitude":44.81885399999999,"longitude":-72.135358,"id":null},"address":" 622 Schoolhouse Rd, Brownington, VT 05860"},{"address":"Leave on roadsides along Route 17","notes":"","name":"","coordinates":{"latitude":null,"longitude":null,"id":null}},{"address":"Leave on roadsides at intersections.","notes":"","name":"","coordinates":{"latitude":null,"longitude":null,"id":null}},{"notes":"","name":"","coordinates":{"id":null,"latitude":null,"longitude":null},"address":"Leave on major roadsides at intersections."},{"name":"Cabot Fire Station ","coordinates":{"id":null,"latitude":44.4012937,"longitude":-72.3134826},"address":"2947 Main St., Cabot VT, 05647","notes":""},{"address":"123-653 Moscow Woods Rd., E. Calais, VT 05650","notes":"","name":"Calais Transfer Station","coordinates":{"id":null,"latitude":44.3684908,"longitude":-72.43823429999999}},{"address":"Leave on roadsides at intersections.","notes":"","name":"","coordinates":{"id":null,"latitude":null,"longitude":null}},{"notes":"","name":"","coordinates":{"id":null,"latitude":null,"longitude":null},"address":"Leave on roadsides at intersections."},{"name":"Transfer Station","coordinates":{"latitude":43.5996911,"longitude":-73.1707572,"id":null},"address":"Staso Rd, Castleton, VT 05735","notes":""},{"address":"354 Route 131, Springfield, VT 05156","notes":"","name":"Cavendish Transfer Station","coordinates":{"id":null,"latitude":43.3880608,"longitude":-72.59896429999999}},{"address":"5063 VT Route 105, Charleston, VT 05872","notes":"","name":"Charleston Town Office","coordinates":{"latitude":44.8505219,"longitude":-72.0254412,"id":null}},{"notes":"","name":"Charlotte Central School","coordinates":{"id":null,"latitude":44.31517119999999,"longitude":-73.22640659999999},"address":"408 Hinesburg Rd., Charlotte, VT 05445"},{"notes":"","name":"Transfer Station","coordinates":{"id":null,"latitude":44.016907,"longitude":-72.4420901},"address":"72 Washington Turnpike, Chelsea, VT  05038"},{"name":"Chester Town Garage","coordinates":{"longitude":-72.5889925,"id":null,"latitude":43.2662607},"address":"44 Town Garage Rd., Chester, VT 05143","notes":""},{"address":"Leave on roadsides at intersections.","notes":"","name":"","coordinates":{"longitude":null,"id":null,"latitude":null}},{"name":"Town Hall","coordinates":{"id":null,"latitude":43.5204625,"longitude":-72.9719633},"address":"279 Middle Rd, North Clarendon, VT 05759","notes":""},{"name":"","coordinates":{"id":null,"latitude":null,"longitude":null},"address":"Leave on roadsides at intersections.","notes":""},{"notes":"","name":"","coordinates":{"latitude":null,"longitude":null,"id":null},"address":"Leave on roadsides at intersections."},{"address":"2628 Goose Green Rd., Corinth, VT 05076","notes":"","name":"Casella Transfer Station","coordinates":{"latitude":44.0133509,"longitude":-72.260798,"id":null}},{"name":"Bingham Memorial School","coordinates":{"id":null,"latitude":43.963902,"longitude":-73.2063979},"address":"112 School Rd, Cornwall VT 05753","notes":""},{"address":"403 Landfill Lane, Coventry, VT 05825","notes":"","name":"Coventry Landfill","coordinates":{"id":null,"latitude":44.91093799999999,"longitude":-72.223486}},{"name":"Craftsbury Town Garage","coordinates":{"id":null,"latitude":44.6371277,"longitude":-72.3713927},"address":"46 Town Garage Rd., Craftsbury, VT 05826","notes":""},{"notes":"","name":"","coordinates":{"longitude":null,"id":null,"latitude":null},"address":"Leave on roadsides at intersections."},{"name":"","coordinates":{"latitude":null,"longitude":null,"id":null},"address":"Leave on roadsides at intersections.","notes":""},{"name":"","coordinates":{"longitude":null,"id":null,"latitude":null},"address":"Leave on roadsides at intersections.","notes":""},{"name":"","coordinates":{"id":null,"latitude":null,"longitude":null},"address":"Leave on roadsides at intersections.","notes":""},{"name":"Transfer Station","coordinates":{"id":null,"latitude":42.9303062,"longitude":-72.8198858},"address":"11 Landfill Rd, West Dover, VT 05356","notes":""},{"notes":"","name":"Dummerston Common","coordinates":{"id":null,"latitude":42.9215017,"longitude":-72.5838146},"address":"Dummerston, VT 05301"},{"notes":"","name":"Duxbury Town Garage","coordinates":{"id":null,"latitude":44.3196029,"longitude":-72.7598694},"address":"5421 VT Route 100, Duxbury, VT 05676"},{"address":"634 Community Road\nEast Haven, VT 05837","notes":"","name":"Community Building","coordinates":{"id":null,"latitude":44.6400615,"longitude":-71.89147}},{"name":"East Montpelier Elementary","coordinates":{"id":null,"latitude":44.28661710000001,"longitude":-72.4953304},"address":"665 Vincent Flats Rd, E. Montpelier, VT 05651","notes":""},{"name":"","coordinates":{"id":null,"latitude":null,"longitude":null},"address":"Leave on roadsides at intersections.","notes":""},{"name":"Elmore Town Garage","coordinates":{"latitude":44.5403375,"longitude":-72.5311737,"id":null},"address":"343 Beach Rd., Elmore, VT 05657","notes":""},{"address":"","notes":"","name":"","coordinates":{"longitude":null,"id":null,"latitude":null}},{"address":" 1 VT-15, Essex Junction, VT 05452","notes":"","name":"Town Common","coordinates":{"latitude":44.5119307,"longitude":-73.0603663,"id":null}},{"notes":"","name":"Highway Garage","coordinates":{"id":null,"latitude":44.504877,"longitude":-73.0549167},"address":" 188 Sand Hill Rd, Essex Junction, VT 05452"},{"address":"Leave bags along roadsides.","notes":"","name":"","coordinates":{"longitude":null,"id":null,"latitude":null}},{"name":"","coordinates":{"id":null,"latitude":null,"longitude":null},"address":"Contact the town office to find out what to do with the bags after.","notes":""},{"address":"12 Gilbert Hill, Fairfield, VT 05445","notes":"","name":"Fairfield Town Garage","coordinates":{"longitude":-72.93741899999999,"id":null,"latitude":44.802999}},{"name":"Fairlee Community Church","coordinates":{"id":null,"latitude":43.9081789,"longitude":-72.142603},"address":"55 Town Common Rd, Fairlee, VT 05045","notes":"Bags can be dropped off at the Fairlee Comm. Church between 10 and 1 on GU Day. Refreshments provided."},{"address":"Fair Haven, VT 05743","notes":"","name":"Village Green","coordinates":{"longitude":-73.266501,"id":null,"latitude":43.593757}},{"name":"","coordinates":{"longitude":null,"id":null,"latitude":null},"address":"Leave on roadsides at intersections.","notes":""},{"name":"","coordinates":{"id":null,"latitude":null,"longitude":null},"address":"Leave on roadsides at intersections.","notes":""},{"name":"Ferrisburgh Town Garage","coordinates":{"id":null,"latitude":44.2050042,"longitude":-73.2503356},"address":"Th 33, Ferrisburg, VT 05456","notes":""},{"notes":"","name":"","coordinates":{"id":null,"latitude":null,"longitude":null},"address":"Leave on roadsides at intersections."},{"name":"Fire Station","coordinates":{"id":null,"latitude":44.98144,"longitude":-72.915128},"address":"5154 Main St, Franklin, VT 05457","notes":""},{"name":"Northwest Vt. Solid Waste Management","coordinates":{"id":null,"latitude":44.6973936,"longitude":-73.1032975},"address":"158 Morse Dr, Fairfax, VT 05454","notes":"The town will be able to pick up roadside  bags but please consider completing your volunteer effort if at all possible by bringing bags to NWSWD."},{"name":"Town Garage","coordinates":{"longitude":-72.1939671,"id":null,"latitude":44.6651547},"address":"1600 Dry Pond Rd, Glover, VT 05839","notes":""},{"name":"","coordinates":{"id":null,"latitude":null,"longitude":null},"address":"Leave on roadsides at intersections.","notes":""},{"name":"Town Garage","coordinates":{"longitude":-72.594803,"id":null,"latitude":43.17429000000001},"address":"778 VT-121, Grafton, VT 05146","notes":""},{"notes":"","name":"Granby Town Office","coordinates":{"latitude":44.5699963,"longitude":-71.75835479999999,"id":null},"address":"9005 Granby Rd., Granby, VT 05840"},{"name":"","coordinates":{"latitude":null,"longitude":null,"id":null},"address":"Leave on roadsides at intersections.","notes":""},{"name":"Moss Glen Grange Hall","coordinates":{"id":null,"latitude":43.9849061,"longitude":-72.8464085},"address":"82 Post Office Hill Road\nGranville, Vermont 05747","notes":""},{"address":"81 Lauredon Ave, Greensboro, VT 05841","notes":"","name":"Recycling Center","coordinates":{"latitude":44.579344,"longitude":-72.2953272,"id":null}},{"name":"Groton Town Office","coordinates":{"id":null,"latitude":44.2115517,"longitude":-72.1973407},"address":"1476 Scott Highway, Groton, VT 05046","notes":""},{"name":"Guildhall Town Office","coordinates":{"id":null,"latitude":44.5650017,"longitude":-71.56205},"address":"13 Courthouse Dr., Guildhall, VT 05905","notes":""},{"name":"Broad Brook Grange","coordinates":{"latitude":42.79366599999999,"longitude":-72.624535,"id":null},"address":"3940 Guilford Center Rd, Guilford, VT 05301","notes":""},{"notes":"","name":"Halifax West School","coordinates":{"id":null,"latitude":42.784431,"longitude":-72.768503},"address":"246 Branch Rd, West Halifax, VT 05358"},{"name":"Hancock Town Hall","coordinates":{"id":null,"latitude":43.9247787,"longitude":-72.84061129999999},"address":"1091 Route 100, Hancock, VT 05748","notes":""},{"name":"Hardwick Fire Dept","coordinates":{"longitude":-72.371869,"id":null,"latitude":44.507867},"address":"333 Wolcott St., Hardwick, VT 05843","notes":""},{"address":"171 Bridge Street White River Junction, VT 05001","notes":"","name":"Hartford Municipal Bldg.","coordinates":{"id":null,"latitude":43.6509268,"longitude":-72.3171613}},{"name":"Quechee Green","coordinates":{"latitude":43.6481807,"longitude":-72.4266114,"id":null},"address":"70 Village Green, White River Junction, VT 05001","notes":""},{"notes":"","name":"Hartford Recycling Center","coordinates":{"longitude":-72.353729,"id":null,"latitude":43.617477},"address":"2590 N. Hartland Rd., White River Jct., VT 05001"},{"notes":"","name":"Hartland Fire Station","coordinates":{"longitude":-72.4078021,"id":null,"latitude":43.5446859},"address":"57 VT Route 12, Hartland, VT 05048"},{"name":"Town Clerk's Office","coordinates":{"longitude":-73.04687609999999,"id":null,"latitude":44.9379157},"address":"2996 VT-78, Highgate Center, VT 05459","notes":""},{"address":"907 Beecher Hill Rd, Hinesburg, VT 05461","notes":"","name":"Town Garage","coordinates":{"id":null,"latitude":44.32071699999999,"longitude":-73.07511099999999}},{"address":"26 School Rd, Derby Line, VT 05830","notes":"","name":"Holland School","coordinates":{"id":null,"latitude":44.9730783,"longitude":-72.0133074}},{"address":"Leave on roadsides at intersections.","notes":"","name":"","coordinates":{"longitude":null,"id":null,"latitude":null}},{"address":"4930 Main Rd., Huntington, VT 05462","notes":"","name":"Huntington Town Garage","coordinates":{"id":null,"latitude":44.295249,"longitude":-72.966302}},{"name":"","coordinates":{"latitude":null,"longitude":null,"id":null},"address":"Leave on roadsides at intersections.","notes":""},{"name":"","coordinates":{"id":null,"latitude":null,"longitude":null},"address":"Leave on roadsides at intersections.","notes":""},{"name":"","coordinates":{"latitude":null,"longitude":null,"id":null},"address":"Leave on roadsides at intersections.","notes":""},{"notes":"","name":"","coordinates":{"id":null,"latitude":null,"longitude":null},"address":"Leave on roadsides at intersections."},{"name":"Transfer Station","coordinates":{"id":null,"latitude":43.095016,"longitude":-72.785439},"address":"141 Castle Hill Rd, Jamaica, VT 05343","notes":""},{"name":"Town Hall","coordinates":{"id":null,"latitude":44.9472848,"longitude":-72.4411758},"address":"1036 VT-242, Jay, VT 05859","notes":""},{"address":"510 Brown's Trace Rd., Jericho, VT 05465","notes":"","name":"Jericho Highway Dept","coordinates":{"id":null,"latitude":44.4544823,"longitude":-72.97048529999999}},{"name":"Johnson Town Green","coordinates":{"latitude":44.635295,"longitude":-72.677939,"id":null},"address":"53 Lower Main St E, Johhson, VT 05656","notes":""},{"name":"Transfer Station","coordinates":{"id":null,"latitude":43.67223,"longitude":-72.775558},"address":"2981 River Road, Killington, VT 05751","notes":""},{"address":"Leaves on roadsides.","notes":"","name":"","coordinates":{"id":null,"latitude":null,"longitude":null}},{"name":"Town Hall","coordinates":{"longitude":-72.85734599999999,"id":null,"latitude":43.2662959},"address":"88 Landgrove Road, Landgrove, VT  05148","notes":""},{"name":"","coordinates":{"id":null,"latitude":null,"longitude":null},"address":"Leave on roadsides at intersections.","notes":""},{"name":"","coordinates":{"longitude":null,"id":null,"latitude":null},"address":"Leave on roadsides at intersections.","notes":""},{"name":"Lincoln Fire Dept","coordinates":{"id":null,"latitude":44.1052136,"longitude":-72.9970561},"address":"34 Gove Hill Rd, Lincoln, VT 05443","notes":""},{"address":"2242 N Main St, Londonderry, VT 05148","notes":"","name":"Mill Parking Area","coordinates":{"id":null,"latitude":43.2273198,"longitude":-72.8095422}},{"notes":"","name":"Londonderry Transfer Station","coordinates":{"id":null,"latitude":43.241814,"longitude":-72.7977207},"address":"7060 VT-100, Londonderry, VT 05148"},{"name":"South Londonderry Fire Station","coordinates":{"id":null,"latitude":43.1920058,"longitude":-72.8143673},"address":"60 Main St., South Londondrry, VT 05155","notes":""},{"name":"","coordinates":{"id":null,"latitude":null,"longitude":null},"address":"Leave on roadsides at intersections.","notes":""},{"name":"Transfer Station","coordinates":{"id":null,"latitude":43.3958564,"longitude":-72.70052559999999},"address":"RR 100, Ludlow, VT 05149","notes":""},{"notes":"","name":"Transfer Station","coordinates":{"latitude":44.461368,"longitude":-71.6632209,"id":null},"address":"47 Transfer Station, Lunenburg, VT 05906"},{"name":"Northeast Kingdom Waste Management District","coordinates":{"id":null,"latitude":44.5380731,"longitude":-72.0035265},"address":"224 Church St, Lyndonville, VT 05851","notes":""},{"address":"Leave on roadsides at intersections.","notes":"","name":"","coordinates":{"id":null,"latitude":null,"longitude":null}},{"name":"","coordinates":{"id":null,"latitude":null,"longitude":null},"address":"Leave on roadsides at intersections.","notes":""},{"address":"Leave on roadsides at intersections.","notes":"","name":"","coordinates":{"id":null,"latitude":null,"longitude":null}},{"name":"Marshfield Town Garage","coordinates":{"longitude":-72.355082,"id":null,"latitude":44.349356},"address":"122 School St. #1, Marshfield, VT 05658","notes":""},{"name":"","coordinates":{"longitude":null,"id":null,"latitude":null},"address":"Leave on roadsides at intersections","notes":""},{"address":"1020 South Route 7, Middlebury, VT 05753","notes":"","name":"Middlebury Public Works Building","coordinates":{"id":null,"latitude":44.0099621,"longitude":-73.1699551}},{"address":"298 Buttolph Dr, Middlebury, VT 05753","notes":"","name":"Middlebury Municipal Pool","coordinates":{"id":null,"latitude":44.0129355,"longitude":-73.1611338}},{"name":"Park across from Twilight Hall","coordinates":{"id":null,"latitude":44.00825950000001,"longitude":-73.1773152},"address":"50 Franklin Street Middlebury College Middlebury, VT 05753","notes":""},{"name":"Middlesex Town Garage","coordinates":{"latitude":44.3428577,"longitude":-72.58830069999999,"id":null},"address":"Shady Rill Rd., Middlesex, VT 05602","notes":""},{"notes":"","name":"Transfer Station","coordinates":{"longitude":null,"id":null,"latitude":null},"address":"8 Firehouse Lane, Middletown Springs, VT 05757"},{"notes":"","name":"Town Garage","coordinates":{"longitude":-73.1261518,"id":null,"latitude":44.619045},"address":"43 Bombardier Rd, Milton, VT 05468"},{"address":"4047 States Prison Rd, Monkton, VT 05469","notes":"","name":"Monkton Highway Dept","coordinates":{"id":null,"latitude":44.253113,"longitude":-73.119225}},{"notes":"","name":"","coordinates":{"id":null,"latitude":null,"longitude":null},"address":"Leave on roadsides at intersections."},{"notes":"","name":"","coordinates":{"id":null,"latitude":null,"longitude":null},"address":"Leave on roadsides at intersections."},{"name":"","coordinates":{"id":null,"latitude":null,"longitude":null},"address":"Leave on roadsides at intersections.","notes":""},{"notes":"","name":"Transfer Station","coordinates":{"id":null,"latitude":44.8601904,"longitude":-71.93914579999999},"address":"2042-, 2186 VT-111, Morgan, VT 05853"},{"name":"","coordinates":{"id":null,"latitude":null,"longitude":null},"address":"Leave on roadsides at intersections.","notes":""},{"name":"","coordinates":{"id":null,"latitude":null,"longitude":null},"address":"Leave on roadsides at intersections.","notes":""},{"name":"","coordinates":{"longitude":null,"id":null,"latitude":null},"address":"Leave on roadsides at intersections.","notes":""},{"name":"","coordinates":{"id":null,"latitude":null,"longitude":null},"address":"Leave on roadsides at intersections.","notes":""},{"name":"Newbury Common","coordinates":{"id":null,"latitude":44.0781576,"longitude":-72.0585068},"address":"Main St (at Pulaski St), Newbury, VT 05051","notes":""},{"address":"Leave on roadsides at intersections.","notes":"","name":"","coordinates":{"longitude":null,"id":null,"latitude":null}},{"notes":"","name":"Gardner Memorial Park","coordinates":{"latitude":44.93890750000001,"longitude":-72.2025829,"id":null},"address":"155 Gardner Park Rd, Newport, VT 05855"},{"name":"","coordinates":{"longitude":null,"id":null,"latitude":null},"address":"Leave on roadsides at intersections.","notes":""},{"name":"Firehouse","coordinates":{"latitude":44.148795,"longitude":-72.65877700000001,"id":null},"address":"128 Wall St, Northfield, VT 05663","notes":""},{"name":"Camp Ingalls","coordinates":{"id":null,"latitude":44.781242,"longitude":-73.309235},"address":"769 South End Rd., N. Hero, VT 05474","notes":""},{"name":"Norton Recycling Center","coordinates":{"latitude":45.005775,"longitude":-71.79789,"id":null},"address":"249 VT Route 114 South, Norton, VT 05907","notes":""},{"name":"Prime Subaru","coordinates":{"longitude":-72.3309285,"id":null,"latitude":43.6435788},"address":"429 Sykes Mountain Ave, White River Junction, VT 05001","notes":""},{"notes":"","name":"Town Garage","coordinates":{"latitude":44.13881629999999,"longitude":-72.40663599999999,"id":null},"address":"144 Richardson Rd, Orange, VT 05641"},{"address":"606 Main St., Orwell, VT 05760","notes":"","name":"Orwell Town Garage","coordinates":{"id":null,"latitude":43.803636,"longitude":-73.291198}},{"name":"Town Garage","coordinates":{"id":null,"latitude":44.154015,"longitude":-73.300133},"address":"2163 Panton Rd, Panton, VT 05491","notes":""},{"name":"Town Garage","coordinates":{"id":null,"latitude":43.353687,"longitude":-73.1498937},"address":"313 Danby Pawlet Rd, Pawlet, VT 05761","notes":""},{"name":"Peacham Elementary","coordinates":{"latitude":44.3257535,"longitude":-72.1671083,"id":null},"address":"340 Bayley-Hazen Rd., Peacham, VT 05862","notes":""},{"name":"Town Center Parking Lot","coordinates":{"latitude":43.229553,"longitude":-72.900955,"id":null},"address":"402 Main St., Peru, VT 05152","notes":""},{"name":"Pittsfield Town Office","coordinates":{"id":null,"latitude":43.7706423,"longitude":-72.812383},"address":"40 Village Green, Pittsfield, VT 05762","notes":""},{"notes":"","name":"Pittsford Town Office","coordinates":{"id":null,"latitude":43.715443,"longitude":-73.028183},"address":"426 Plains Rd., Pittsford, VT 05763"},{"name":"Plainfield Town Garage","coordinates":{"id":null,"latitude":44.26609759999999,"longitude":-72.4096562},"address":"99 Cameron Rd., Plainfield, VT 05667","notes":""},{"name":"Plymouth Transfer Station","coordinates":{"latitude":43.520805,"longitude":-72.710846,"id":null},"address":"1515 Lynds Hill Rd., Plymouth, VT 05056","notes":""},{"name":"Pomfret Town Garage","coordinates":{"latitude":43.6979284,"longitude":-72.52079789999999,"id":null},"address":"100 LaBounty Rd., N. Pomfret, VT 05053","notes":""},{"address":"611 Hillside Rd, Poultney, VT 05764","notes":"","name":"Transfer Station","coordinates":{"id":null,"latitude":43.536274,"longitude":-73.20518500000001}},{"address":"Leave on roadsides at intersections.","notes":"","name":"","coordinates":{"longitude":null,"id":null,"latitude":null}},{"address":"Leave on roadsides at intersections.","notes":"","name":"","coordinates":{"id":null,"latitude":null,"longitude":null}},{"name":"Town Hall","coordinates":{"id":null,"latitude":42.9746259,"longitude":-72.52210029999999},"address":"127 Main St, Putney, VT 05346","notes":""},{"name":"","coordinates":{"longitude":null,"id":null,"latitude":null},"address":"Leave on roadsides at intersections.","notes":""},{"address":"5024 VT Route 106, Perkinsville, VT 05151","notes":"","name":"Weathersfield Transfer Station","coordinates":{"latitude":43.410191,"longitude":-72.5136179,"id":null}},{"address":"Leave on roadsides at intersections.","notes":"","name":"","coordinates":{"latitude":null,"longitude":null,"id":null}},{"name":"Town Garage","coordinates":{"id":null,"latitude":44.9886221,"longitude":-72.6826258},"address":"236 S Main St, Richford, VT 05476","notes":""},{"name":"Town Garage","coordinates":{"id":null,"latitude":44.3957059,"longitude":-73.0055127},"address":"276 Thompson Rd, Richmond, VT 05477","notes":""},{"address":"Leave on roadsides at intersections.","notes":"","name":"","coordinates":{"id":null,"latitude":null,"longitude":null}},{"name":"Rochester Elementary","coordinates":{"id":null,"latitude":43.872193,"longitude":-72.809173},"address":"222 S. Main St., Rochester, VT 05767","notes":""},{"name":"Town Garage","coordinates":{"id":null,"latitude":43.129891,"longitude":-72.453546},"address":"19 Blake St, Bellows Falls, VT 05101","notes":""},{"notes":"","name":"","coordinates":{"id":null,"latitude":null,"longitude":null},"address":"Leave on roadsides at intersections."},{"name":"South Royalton Green","coordinates":{"longitude":-72.5210189,"id":null,"latitude":43.8191791},"address":"57 Park St., S. Royalton, VT 05068","notes":""},{"notes":"","name":"Fire Station","coordinates":{"longitude":-73.2620707,"id":null,"latitude":43.22521870000001},"address":"2673 VT Route 153 West Rupert,VT 05768"},{"address":"14 Gleason Rd, Rutland, VT 05701","notes":"","name":"Transfer Station","coordinates":{"id":null,"latitude":43.620892,"longitude":-72.95135499999999}},{"notes":"","name":"Kinney Subaru","coordinates":{"longitude":-72.97213099999999,"id":null,"latitude":43.6069664},"address":"128 US-7, Rutland, VT 05701"},{"address":"32 Witherspoon Rd., Ryegate, VT 05042","notes":"","name":"Ryegate Town Garage","coordinates":{"latitude":44.2086056,"longitude":-72.10432039999999,"id":null}},{"address":"Leave on roadsides at intersections.","notes":"","name":"","coordinates":{"longitude":null,"id":null,"latitude":null}},{"address":"Leave on roadsides at intersections.","notes":"","name":"","coordinates":{"id":null,"latitude":null,"longitude":null}},{"address":"Leave on roadsides at intersections.","notes":"","name":"","coordinates":{"id":null,"latitude":null,"longitude":null}},{"address":"61 Buck Hill Rd, Shaftsbury, VT 05262","notes":"","name":"Town Offices","coordinates":{"latitude":42.9465829,"longitude":-73.209824,"id":null}},{"name":"Town Garage","coordinates":{"id":null,"latitude":43.7530419,"longitude":-72.4492193},"address":"VT-14, Sharon, VT 05065","notes":""},{"name":"","coordinates":{"id":null,"latitude":null,"longitude":null},"address":"","notes":""},{"name":"Town Dump Truck","coordinates":{"latitude":44.38468899999999,"longitude":-73.23599200000001,"id":null},"address":"154 Turtle Lane, Shelburne, VT 05482","notes":""},{"notes":"","name":"Town Garage","coordinates":{"id":null,"latitude":44.8820943,"longitude":-72.9377616},"address":"649 Bridge St, Sheldon, VT 05483"},{"address":"Leave on roadsides at intersections.","notes":"","name":"","coordinates":{"id":null,"latitude":null,"longitude":null}},{"name":"Northam Trasfer Station","coordinates":{"latitude":43.525455,"longitude":-72.832939,"id":null},"address":"130 Mountain School Rd., Shrewbury, VT 05738","notes":""},{"name":"South Burlington City Hall","coordinates":{"longitude":-73.1796,"id":null,"latitude":44.45433999999999},"address":"575 Dorset St., S. Burlington, VT 05403","notes":""},{"address":"Leave on roadsides at intersections.","notes":"","name":"","coordinates":{"id":null,"latitude":null,"longitude":null}},{"name":"","coordinates":{"longitude":null,"id":null,"latitude":null},"address":"Leave on roadsides at intersections.","notes":""},{"name":"Stamford Recycling Center","coordinates":{"id":null,"latitude":42.7548249,"longitude":-73.06741099999999},"address":"986 Main Rd, Stamford, VT 05352","notes":""},{"name":"Town Office","coordinates":{"id":null,"latitude":44.542811,"longitude":-72.213075},"address":"615 Stannard Mountain Road Stannard, VT 05842","notes":""},{"notes":"","name":"Town Garage","coordinates":{"id":null,"latitude":44.2409595,"longitude":-73.0575535},"address":"3904 VT-116, Starksboro, VT 05487"},{"name":"Stockbridge Central School","coordinates":{"id":null,"latitude":43.7650764,"longitude":-72.7126241},"address":"2933 VT-107, Stockbridge, VT 05772","notes":""},{"name":"Sunset Grille","coordinates":{"longitude":-72.715366,"id":null,"latitude":44.4771459},"address":"140 Cottage Club Rd., Stowe, VT 05672","notes":""},{"address":"233 Route 132, South Strafford, VT 05070","notes":"","name":"South Strafford Park and Ride","coordinates":{"id":null,"latitude":43.8350531,"longitude":-72.3638217}},{"name":"","coordinates":{"id":null,"latitude":null,"longitude":null},"address":"Leave on roadsides at intersections.","notes":""},{"address":"Leave on roadsides at intersections.","notes":"","name":"","coordinates":{"longitude":null,"id":null,"latitude":null}},{"name":"","coordinates":{"longitude":null,"id":null,"latitude":null},"address":"Leave on roadsides at intersections.","notes":""},{"name":"","coordinates":{"latitude":null,"longitude":null,"id":null},"address":"Leave on roadsides at intersections.","notes":""},{"name":"Saint J Subaru","coordinates":{"id":null,"latitude":44.4420107,"longitude":-72.01402159999999},"address":"9273, 664 Memorial Dr, St Johnsbury, VT 05819","notes":""},{"name":"Sudbury Recycling Center","coordinates":{"id":null,"latitude":43.8214253,"longitude":-73.17345809999999},"address":"12 Williams Lane, Sudbury, VT 05733","notes":""},{"notes":"","name":"Town Garage","coordinates":{"longitude":-73.119415,"id":null,"latitude":43.10836399999999},"address":"3039 Sunderland Hill Rd, Sunderland, VT 05250"},{"name":"Fire Station","coordinates":{"latitude":44.6315488,"longitude":-72.01243219999999,"id":null},"address":"691 Burke Rd, Sutton, VT 05867","notes":""},{"notes":"","name":"","coordinates":{"id":null,"latitude":null,"longitude":null},"address":"Leave on roadsides at intersections."},{"name":"Thetford Town Garage","coordinates":{"id":null,"latitude":43.8313419,"longitude":-72.2475901},"address":"3901 VT Route 113, Thetford, VT 05075","notes":""},{"address":"537 Route 140, Tinmouth, VT 05773","notes":"","name":"Tinmouth Transfer Station","coordinates":{"latitude":43.4485575,"longitude":-73.04800929999999,"id":null}},{"name":"Casella Transfer Station","coordinates":{"longitude":null,"id":null,"latitude":null},"address":"2628 Goose Green Rd., Topsham, VT 05076","notes":""},{"notes":"","name":"Townshend Common","coordinates":{"id":null,"latitude":43.0469236,"longitude":-72.668295},"address":"93-1 Common Rd., Tonwshend, VT 05353"},{"name":"","coordinates":{"longitude":null,"id":null,"latitude":null},"address":"Leave on roadsides at intersections.","notes":""},{"address":"Leave on roadsides at intersections.","notes":"","name":"","coordinates":{"id":null,"latitude":null,"longitude":null}},{"name":"Underhill Town Garage","coordinates":{"longitude":-72.8858923,"id":null,"latitude":44.5195249},"address":"75 New Rd., Underhill, VT 05489","notes":""},{"name":"","coordinates":{"latitude":null,"longitude":null,"id":null},"address":"Leave on roadsides at intersections.","notes":""},{"notes":"","name":"","coordinates":{"id":null,"latitude":null,"longitude":null},"address":"Leave on roadsides at intersections."},{"notes":"","name":"","coordinates":{"id":null,"latitude":null,"longitude":null},"address":"Leave on roadsides at intersections."},{"name":"","coordinates":{"id":null,"latitude":null,"longitude":null},"address":"Leave on roadsides at intersections.","notes":""},{"address":"Leave on roadsides at intersections.","notes":"","name":"","coordinates":{"longitude":null,"id":null,"latitude":null}},{"notes":"","name":"","coordinates":{"id":null,"latitude":null,"longitude":null},"address":"Leave on roadsides at intersections."},{"name":"Wallingford Transfer Station","coordinates":{"latitude":43.4704907,"longitude":-72.9824021,"id":null},"address":"99 Waldo Lane, Wallingford, VT 05773","notes":""},{"name":"Town Hall","coordinates":{"latitude":44.130825,"longitude":-73.24468999999999,"id":null},"address":"2053 Maple St, Vergennes, VT 05491","notes":""},{"address":"174 S. Wardsboro Rd., Newfane, VT 05345","notes":"","name":"Wardsboro Transfer Station","coordinates":{"id":null,"latitude":43.0391697,"longitude":-72.7895758}},{"name":"","coordinates":{"id":null,"latitude":null,"longitude":null},"address":"Leave on roadsides at intersections.","notes":""},{"address":"6911 Main St., Waitsfield, VT 05673","notes":"","name":"Earthwise Transfer Station","coordinates":{"latitude":44.160995,"longitude":-72.832504,"id":null}},{"name":"","coordinates":{"latitude":null,"longitude":null,"id":null},"address":"Leave on roadsides at intersections.","notes":""},{"notes":"","name":"Washington Fire Station","coordinates":{"id":null,"latitude":44.107406,"longitude":-72.43418799999999},"address":"51 Firehouse Lane, Washington, VT 05675"},{"notes":"","name":"Waterbury Town Garage","coordinates":{"latitude":44.37241,"longitude":-72.71908599999999,"id":null},"address":"1707 Guptil Rd., Waterbury, VT 05677"},{"name":"Transfer Station","coordinates":{"id":null,"latitude":44.3543917,"longitude":-71.9077404},"address":"532 Maple St, Waterford, VT  05848","notes":""},{"name":"","coordinates":{"id":null,"latitude":null,"longitude":null},"address":"Leave on roadsides at intersections.","notes":""},{"name":"Dan Foster House","coordinates":{"latitude":43.378994,"longitude":-72.46691899999999,"id":null},"address":"2656 Weathersfield Center Rd, Weathersfield,VT05151","notes":""},{"notes":"","name":"","coordinates":{"id":null,"latitude":null,"longitude":null},"address":"Leave on roadsides at intersections."},{"name":"","coordinates":{"longitude":null,"id":null,"latitude":null},"address":"Leave on roadsides at intersections.","notes":""},{"address":"757 VT-100, Westfield, VT 05874","notes":"","name":"Westfield Recycling Center","coordinates":{"id":null,"latitude":44.892315,"longitude":-72.422104}},{"name":"Westford Town Offices","coordinates":{"id":null,"latitude":44.612086,"longitude":-73.011004},"address":"1713 VT Route 128, Westford, VT 05494","notes":""},{"name":"","coordinates":{"longitude":null,"id":null,"latitude":null},"address":"Leave on roadsides at intersections.","notes":""},{"name":"Weston Recreation Area","coordinates":{"id":null,"latitude":43.3168762,"longitude":-72.7896107},"address":"429 Lawrence Hill Rd., Weston, VT 05161","notes":""},{"address":"Leave on roadsides at intersections.","notes":"","name":"Town Recycling","coordinates":{"id":null,"latitude":null,"longitude":null}},{"address":"Leave on roadsides at intersections.","notes":"","name":"","coordinates":{"id":null,"latitude":null,"longitude":null}},{"name":"","coordinates":{"id":null,"latitude":null,"longitude":null},"address":"Leave on roadsides at intersections.","notes":""},{"name":"Weathersfield Transfer Station","coordinates":{"longitude":-72.5136179,"id":null,"latitude":43.410191},"address":"5024 VT Route 106, Perkinsville, VT 05151","notes":""},{"name":"","coordinates":{"id":null,"latitude":null,"longitude":null},"address":"Leave on roadsides at intersections.","notes":""},{"address":"Leave on roadsides at intersections.","notes":"","name":"","coordinates":{"id":null,"latitude":null,"longitude":null}},{"name":"","coordinates":{"longitude":null,"id":null,"latitude":null},"address":"Leave on roadsides at intersections.","notes":""},{"address":"4189 VT-100, Whitingham, VT 05361","notes":"","name":"Whitingham Transfer Station","coordinates":{"longitude":-72.838448,"id":null,"latitude":42.788624}},{"notes":"","name":"","coordinates":{"latitude":null,"longitude":null,"id":null},"address":"Leave on roadsides at intersections."},{"name":"","coordinates":{"longitude":null,"id":null,"latitude":null},"address":"Leave on roadsides at intersections.","notes":""},{"address":"Leave on roadsides at intersections.","notes":"","name":"","coordinates":{"id":null,"latitude":null,"longitude":null}},{"name":"","coordinates":{"latitude":null,"longitude":null,"id":null},"address":"Leave on roadsides at intersections.","notes":""},{"name":"Municipal Building","coordinates":{"longitude":-72.3872073,"id":null,"latitude":43.4775646},"address":"147 Main St, Windsor, VT 05089","notes":""},{"name":"","coordinates":{"longitude":null,"id":null,"latitude":null},"address":"Leave on roadsides at intersections.","notes":""},{"name":"O'Brien Community Center","coordinates":{"longitude":-73.1910905,"id":null,"latitude":44.498457},"address":"32 Malletts Bay Ave, Winooski, VT 05404","notes":""},{"name":"","coordinates":{"longitude":null,"id":null,"latitude":null},"address":"Leave on roadsides at intersections.","notes":""},{"name":"Woodbury Elementary","coordinates":{"id":null,"latitude":44.44003499999999,"longitude":-72.416224},"address":"63 Valley Lake Rd., Woodbury, VT 05681","notes":""},{"address":"Leave on roadsides at intersections.","notes":"","name":"","coordinates":{"id":null,"latitude":null,"longitude":null}},{"address":"463 Route 4, Woodstock, VT 05091","notes":"","name":"West Woodstock Town Garage","coordinates":{"latitude":43.545761,"longitude":-72.576499,"id":null}},{"notes":"","name":"","coordinates":{"longitude":null,"id":null,"latitude":null},"address":"Leave on roadsides at intersections."}]